lng,lat,objectid,buildingkey,alphaname,sortnumber
-84.3919,33.7646,139309,98566,James Street,165
-84.3896,33.7643,150190,69022907,Jangle Street,50
-84.3917,33.76,160014,116028153,Andrew Young International Blvd,135
-84.4052,33.7502,161128,98676,Bailey Street,165
-84.3926,33.7627,139898,98677,Baker Street,117
-84.3901,33.7555,133455,92556,Broad Street,44
-84.395,33.758,133464,92566,CNN Center,1
-84.4038,33.7488,159998,98852,Fair Street,504
